{
  "generatedAt": "2026-03-27T04:42:22.284Z",
  "addresses": {
    "860 vallejo st denver": {
      "lat": 39.7304048,
      "lng": -105.0126254,
      "matchedAddress": "860 Vallejo Street, Denver, CO 80204"
    },
    "header highlight - $500": {
      "lat": 40.084736,
      "lng": -104.81027,
      "matchedAddress": "500 Denver Avenue, Fort Lupton, Colorado 80621, United States"
    },
    "address": {
      "lat": 39.741681,
      "lng": -104.986109,
      "matchedAddress": "Denver, Colorado, United States"
    },
    "edgewater beer garden 2508 gray st · edgewater, co": {
      "lat": 39.753352,
      "lng": -105.061072,
      "matchedAddress": "2508 Gray Street, Edgewater, Colorado 80214, United States"
    },
    "etown hall 1535 spruce st, boulder, co 80302, usa": {
      "lat": 40.020239,
      "lng": -105.275498,
      "matchedAddress": "1535 Spruce Street, Boulder, Colorado 80302, United States"
    },
    "csu spur hydro building": {
      "lat": 39.741681,
      "lng": -104.986109,
      "matchedAddress": "Denver, Colorado, United States"
    },
    "embassy suites by hilton denver downtown convention center 1420 stout st, denver, co 80202, usa": {
      "lat": 39.74409,
      "lng": -104.994852,
      "matchedAddress": "1420 Stout Street, Denver, Colorado 80202, United States"
    },
    "4850 national western dr denver, co 80216, usa": {
      "lat": 39.784305,
      "lng": -104.971308,
      "matchedAddress": "4850 North National Western Drive, Denver, Colorado 80216, United States"
    },
    "the curtis denver - a doubletree by hilton hotel 1405 curtis street, denver, co 80202, usa": {
      "lat": 39.74581,
      "lng": -104.997185,
      "matchedAddress": "1405 Curtis Street, Denver, Colorado 80202, United States"
    },
    "4777 national western dr denver, co 80216, usa": {
      "lat": 39.783518,
      "lng": -104.97373,
      "matchedAddress": "4777 North National Western Drive, Denver, Colorado 80216, United States"
    },
    "3416 e colfax ave, denver, co 80206": {
      "lat": 39.739961,
      "lng": -104.946778,
      "matchedAddress": "3416 East Colfax Avenue, Denver, Colorado 80206, United States"
    },
    "improper city 3201 walnut st #107, denver, co 80205, usa": {
      "lat": 39.765348,
      "lng": -104.978694,
      "matchedAddress": "3201 Walnut Street, Denver, Colorado 80205, United States"
    },
    "1725 e 30th ave denver, co 80205, usa": {
      "lat": 39.75962,
      "lng": -104.96639,
      "matchedAddress": "1725 East 30th Avenue, Denver, Colorado 80205, United States"
    },
    "hello darling (commons park) 1610 little raven st #110, denver, co 80202, usa": {
      "lat": 39.75516,
      "lng": -105.004328,
      "matchedAddress": "1610 Little Raven Street, Denver, Colorado 80202, United States"
    },
    "denver co, usa": {
      "lat": 39.741681,
      "lng": -104.986109,
      "matchedAddress": "Denver, Colorado, United States"
    },
    "denver barbell club 3821 steele st ste 1302, denver, co 80205, usa": {
      "lat": 39.769833,
      "lng": -104.953142,
      "matchedAddress": "3821 North Steele Street, Denver, Colorado 80205, United States"
    },
    "1075 park ave west, denver co 80205": {
      "lat": 39.75445,
      "lng": -104.986863,
      "matchedAddress": "1075 Park Avenue West, Denver, Colorado 80205, United States"
    },
    "asterisk 1075 park ave w, denver, co 80205, usa": {
      "lat": 39.75445,
      "lng": -104.986863,
      "matchedAddress": "1075 Park Avenue West, Denver, Colorado 80205, United States"
    },
    "the wild 1660 wynkoop st suite 100, denver, co 80202, usa": {
      "lat": 39.752166,
      "lng": -105.000145,
      "matchedAddress": "1660 Wynkoop Street, Denver, Colorado 80202, United States"
    },
    "snooze, an a.m. eatery 1701 wynkoop st suite 100, denver, co 80202, usa": {
      "lat": 39.752427,
      "lng": -104.99884,
      "matchedAddress": "1701 Wazee Street, Denver, Colorado 80202, United States"
    },
    "hilton garden inn denver union station 1999 chestnut pl, denver, co 80202, usa": {
      "lat": 39.757637,
      "lng": -104.999297,
      "matchedAddress": "1999 Chestnut Place, Denver, Colorado 80202, United States"
    },
    "1725 e 30th ave, denver, co 80205, usa": {
      "lat": 39.75962,
      "lng": -104.96639,
      "matchedAddress": "1725 East 30th Avenue, Denver, Colorado 80205, United States"
    },
    "the kitchen american bistro 1560 wazee st, denver, co 80202, usa": {
      "lat": 39.750997,
      "lng": -105.000115,
      "matchedAddress": "1560 Wazee Street, Denver, Colorado 80202, United States"
    },
    "catbird hotel 3770 walnut st, denver, co 80205, usa": {
      "lat": 39.76969,
      "lng": -104.972356,
      "matchedAddress": "3770 Walnut Street, Denver, Colorado 80205, United States"
    },
    "stick & feather 3851 steele st unit 1378, denver, co 80205, usa": {
      "lat": 39.769709,
      "lng": -104.957419,
      "matchedAddress": "3851 N Steele St, Denver, Colorado 80205, United States"
    },
    "bartaco 2001 w 32nd ave, denver, co 80211, usa": {
      "lat": 39.76213,
      "lng": -105.01133,
      "matchedAddress": "2001 West 32nd Avenue, Denver, Colorado 80211, United States"
    },
    "coohills 1400 wewatta st, denver, co 80202, usa": {
      "lat": 39.750781,
      "lng": -105.003498,
      "matchedAddress": "1400 Wewatta Street, Denver, Colorado 80202, United States"
    },
    "silicon valley bank one tabor center, 1200 17th st 16th floor, denver, co 80202, usa": {
      "lat": 39.749175,
      "lng": -104.996273,
      "matchedAddress": "1200 17th Street, Denver, Colorado 80202, United States"
    },
    "denver": {
      "lat": 39.741681,
      "lng": -104.986109,
      "matchedAddress": "Denver, Colorado, United States"
    },
    "virtual event: a link to join the geniiverse will be sent upon approval": {
      "lat": 39.741681,
      "lng": -104.986109,
      "matchedAddress": "Denver, Colorado, United States"
    },
    "temple denver 1136 broadway, denver, co 80203": {
      "lat": 39.73453,
      "lng": -104.987086,
      "matchedAddress": "1136 North Broadway, Denver, Colorado 80203, United States"
    },
    "confluence park 2250 15th st, denver, co 80202, usa": {
      "lat": 39.754909,
      "lng": -105.008055,
      "matchedAddress": "2250 15th Street, Denver, Colorado 80202, United States"
    },
    "procession coffee, 1075 park ave w, denver, co 80205, usa": {
      "lat": 39.75445,
      "lng": -104.986863,
      "matchedAddress": "1075 Park Avenue West, Denver, Colorado 80205, United States"
    },
    "lower south lot 1 red rocks trail, morrison, co 80401, usa": {
      "lat": 39.669634,
      "lng": -105.199842,
      "matchedAddress": "Red Rocks Trail Road, Morrison, Colorado 80465, United States"
    },
    "coffee sarap 3460 larimer st, denver, co 80205, usa": {
      "lat": 39.766507,
      "lng": -104.974858,
      "matchedAddress": "3460 Larimer Street, Denver, Colorado 80205, United States"
    },
    "legacy building (level 3) at the national western center (4800 national western dr, denver, co 80216)": {
      "lat": 39.783503,
      "lng": -104.97267,
      "matchedAddress": "4800 North National Western Drive, Denver, Colorado 80216, United States"
    },
    "green spaces 2590 walnut st, denver, co 80205, usa": {
      "lat": 39.758776,
      "lng": -104.986183,
      "matchedAddress": "2590 Walnut Street, Denver, Colorado 80205, United States"
    },
    "federales tacos & tequila - rino, denver 2901 larimer st, denver, co 80205, usa": {
      "lat": 39.76162,
      "lng": -104.98171,
      "matchedAddress": "2901 Larimer Street, Denver, Colorado 80205, United States"
    },
    "mirus gallery & art bar denver 1144 broadway, denver, co 80203, usa": {
      "lat": 39.734721,
      "lng": -104.987112,
      "matchedAddress": "1144 North Broadway, Denver, Colorado 80203, United States"
    },
    "4800 national western dr denver, co 80216, usa": {
      "lat": 39.783503,
      "lng": -104.97267,
      "matchedAddress": "4800 North National Western Drive, Denver, Colorado 80216, United States"
    },
    "taft stettinius & hollister llp (formerly sherman & howard l.l.c.) 675 15th st suite 2300, denver, co 80202, usa": {
      "lat": 39.744346,
      "lng": -104.992949,
      "matchedAddress": "675 15th Street, Denver, Colorado 80202, United States"
    },
    "the walnut room 3131 walnut st, denver, co 80205, usa": {
      "lat": 39.764583,
      "lng": -104.97929,
      "matchedAddress": "Walnut Street, Denver, Colorado 80205, United States"
    },
    "the peach crease club 4180 wynkoop st, denver, co 80216, usa": {
      "lat": 39.77543,
      "lng": -104.970198,
      "matchedAddress": "4180 Wynkoop Street, Denver, Colorado 80216, United States"
    },
    "one shot back 2134 curtis street ste 101, denver, co 80205, usa": {
      "lat": 39.752135,
      "lng": -104.98802,
      "matchedAddress": "2134 Curtis Street, Denver, Colorado 80205, United States"
    },
    "tamayo 1400 larimer st, denver, co 80202, usa": {
      "lat": 39.747316,
      "lng": -104.999483,
      "matchedAddress": "1400 Larimer Street, Denver, Colorado 80202, United States"
    },
    "tbd": {
      "lat": 39.741681,
      "lng": -104.986109,
      "matchedAddress": "Denver, Colorado, United States"
    },
    "lucky strike denver 500 16th st mall #340, denver, co 80202, usa": {
      "lat": 39.743352,
      "lng": -104.990897,
      "matchedAddress": "500 16th Street, Denver, Colorado 80202, United States"
    },
    "edge restaurant & bar 1111 14th st, denver, co 80202, usa": {
      "lat": 39.746528,
      "lng": -104.99825,
      "matchedAddress": "1111 14th Street, Denver, Colorado 80202, United States"
    },
    "upswell rino station 3636 blake st, denver, co 80205, usa": {
      "lat": 39.76947,
      "lng": -104.974495,
      "matchedAddress": "3636 Blake Street, Denver, Colorado 80205, United States"
    },
    "rise comedy - denver comedy, improv, stand up and sketch - full bar 1260 22nd st, denver, co 80205, usa": {
      "lat": 39.754446,
      "lng": -104.989995,
      "matchedAddress": "1260 West 22nd Street, Denver, Colorado 80205, United States"
    },
    "will be disclosed with approved guests": {
      "lat": 39.741681,
      "lng": -104.986109,
      "matchedAddress": "Denver, Colorado, United States"
    },
    "3851 steele st unit 1378 denver, co 80205, usa": {
      "lat": 39.769709,
      "lng": -104.957419,
      "matchedAddress": "3851 N Steele St, Denver, Colorado 80205, United States"
    },
    "mister oso rino, 3163 larimer st, denver, co 80205, usa": {
      "lat": 39.764235,
      "lng": -104.9785,
      "matchedAddress": "3163 Larimer Street, Denver, Colorado 80205, United States"
    },
    "meow wolf denver's convergence station 1338 1st st, denver, co 80204, usa": {
      "lat": 39.740848,
      "lng": -105.015823,
      "matchedAddress": "1338 1st Street, Denver, Colorado 80204, United States"
    },
    "lakewood co, usa": {
      "lat": 39.708706,
      "lng": -105.086267,
      "matchedAddress": "Lakewood, Colorado, United States"
    },
    "shift workspaces - bannock 1001 bannock st, denver, co 80204, usa": {
      "lat": 39.732232,
      "lng": -104.990586,
      "matchedAddress": "1001 Bannock Street, Denver, Colorado 80218, United States"
    },
    "cimera 3330 brighton blvd #200-2, denver, co 80216, usa": {
      "lat": 39.768677,
      "lng": -104.980445,
      "matchedAddress": "3330 North Brighton Boulevard, Denver, Colorado 80216, United States"
    },
    "wynkoop brewing company, 18th street, denver, co, usa": {
      "lat": 39.75363,
      "lng": -104.998347,
      "matchedAddress": "18th Street, Denver, Colorado 80202, United States"
    },
    "number thirty eight 3560 chestnut pl, denver, co 80216, usa": {
      "lat": 39.77241,
      "lng": -104.97938,
      "matchedAddress": "3560 Chestnut Place, Denver, Colorado 80216, United States"
    },
    "f1 arcade denver 2734 walnut st, denver, co 80205, usa": {
      "lat": 39.760546,
      "lng": -104.984139,
      "matchedAddress": "2734 Walnut Street, Denver, Colorado 80205, United States"
    },
    "the banshee house 2715 larimer st, denver, co 80205, usa": {
      "lat": 39.75986,
      "lng": -104.983962,
      "matchedAddress": "2715 Larimer Street, Denver, Colorado 80205, United States"
    },
    "mockingbird 2737 larimer st, denver, co 80205, usa": {
      "lat": 39.760196,
      "lng": -104.983632,
      "matchedAddress": "2737 Larimer Street, Denver, Colorado 80205, United States"
    },
    "hearth 2500 lawrence st #200, denver, co 80205, usa": {
      "lat": 39.75688,
      "lng": -104.985259,
      "matchedAddress": "2500 Lawrence Street, Denver, Colorado 80205, United States"
    },
    "limelight denver 1600 wewatta st, denver, co 80202, usa": {
      "lat": 39.753217,
      "lng": -105.001942,
      "matchedAddress": "1600 Wewatta Street, Denver, Colorado 80202, United States"
    },
    "4809 race st denver, co 80216, usa": {
      "lat": 39.78402,
      "lng": -104.96377,
      "matchedAddress": "4809 Race Street, Denver, Colorado 80216, United States"
    },
    "stowaway kitchen 2528 walnut st #104, denver, co 80205, usa": {
      "lat": 39.758558,
      "lng": -104.986548,
      "matchedAddress": "2528 Walnut Street, Denver, Colorado 80205, United States"
    },
    "1925 blake st, denver, co 80202, usa": {
      "lat": 39.753983,
      "lng": -104.995264,
      "matchedAddress": "1925 Blake Street, Denver, Colorado 80202, United States"
    },
    "buidlhub judging space": {
      "lat": 39.741681,
      "lng": -104.986109,
      "matchedAddress": "Denver, Colorado, United States"
    },
    "museum of electronic music - denver": {
      "lat": 40.27358,
      "lng": -76.23097,
      "matchedAddress": "Museum Rd, Denver, Pennsylvania 17517, United States"
    },
    "notes": {
      "lat": 39.741681,
      "lng": -104.986109,
      "matchedAddress": "Denver, Colorado, United States"
    },
    "the reunification monument 海濱花園旁, wan chai, hong kong": {
      "lat": 22.27925,
      "lng": 114.17325,
      "matchedAddress": "Wanzai Qu, Hong Kong"
    },
    "harbour station hung hing rd, causeway bay, hong kong": {
      "lat": 22.279356,
      "lng": 114.16255,
      "matchedAddress": "Hong Kong"
    },
    "soho house hong kong 33 des voeux rd w, sheung wan, hong kong": {
      "lat": 22.287889,
      "lng": 114.146606,
      "matchedAddress": "德輔道西 Des Voeux Road West 33, Zhongxi Qu, Hong Kong"
    },
    "central pier no.10 central, hong kong": {
      "lat": 22.279356,
      "lng": 114.16255,
      "matchedAddress": "Hong Kong"
    },
    "swiss cafe 號地下, 12 li yuen st w, central, hong kong": {
      "lat": 22.283009,
      "lng": 114.156046,
      "matchedAddress": "利源西街 Li Yuen Street West 12, Zhongxi Qu, Hong Kong"
    },
    "wan chai hong kong": {
      "lat": 22.27925,
      "lng": 114.17325,
      "matchedAddress": "Wanzai Qu, Hong Kong"
    },
    "wan chai harbourfront promenade expo dr, wan chai, hong kong": {
      "lat": 22.279356,
      "lng": 114.16255,
      "matchedAddress": "Hong Kong"
    },
    "victoria park 1 hing fat st, causeway bay, hong kong": {
      "lat": 22.284019,
      "lng": 114.188827,
      "matchedAddress": "興發街 Hing Fat Street 1, Wanzai Qu, Hong Kong"
    },
    "exhibition centre station harbour rd, wan chai, hong kong": {
      "lat": 22.279356,
      "lng": 114.16255,
      "matchedAddress": "Hong Kong"
    },
    "v point 18 tang lung st, causeway bay, hong kong": {
      "lat": 22.279109,
      "lng": 114.18164,
      "matchedAddress": "登龍街 Tang Lung Street 18, Wanzai Qu, Hong Kong"
    },
    "cosco tower 183 queen's road central, sheung wan, hong kong": {
      "lat": 22.279356,
      "lng": 114.16255,
      "matchedAddress": "Hong Kong"
    },
    "aoao 14/f, 38-48 queen's road central, central, hong kong": {
      "lat": 22.283285,
      "lng": 114.155323,
      "matchedAddress": "皇后大道中 Queen's Road Central, Zhongxi Qu, Hong Kong"
    },
    "rayson huang theatre pok fu lam rd, lung fu shan, hong kong": {
      "lat": 22.279356,
      "lng": 114.16255,
      "matchedAddress": "Hong Kong"
    },
    "wlab area a, block a-d, 1/f, 196-198 tsat tsz mui rd, quarry bay, hong kong": {
      "lat": 22.291356,
      "lng": 114.20424,
      "matchedAddress": "七姊妹道 Tsat Tsz Mui Road, Dong Qu, Hong Kong"
    },
    "aia carnival 9 lung wo road, central, hki hong kong": {
      "lat": 22.279356,
      "lng": 114.16255,
      "matchedAddress": "Hong Kong"
    },
    "14th floor, three exchange square, 8 connaught place, central, hong kong": {
      "lat": 22.279356,
      "lng": 114.16255,
      "matchedAddress": "Hong Kong"
    },
    "bar leone 11-15 bridges st, central, hong kong": {
      "lat": 22.279356,
      "lng": 114.16255,
      "matchedAddress": "Hong Kong"
    },
    "elephant grounds 8 wing fung st, wan chai, hong kong": {
      "lat": 22.27682,
      "lng": 114.168354,
      "matchedAddress": "永豐街 Wing Fung Street 8, Wanzai Qu, Hong Kong"
    },
    "royal hong kong yacht club (rhkyc) kellett island, causeway bay, hong kong": {
      "lat": 22.279356,
      "lng": 114.16255,
      "matchedAddress": "Hong Kong"
    },
    "esp 1029 santa fe dr, denver, co 80204, usa": {
      "lat": 39.732734,
      "lng": -104.998788,
      "matchedAddress": "1029 North Santa Fe Drive, Denver, Colorado 80204, United States"
    },
    "official side events list": {
      "lat": 39.741681,
      "lng": -104.986109,
      "matchedAddress": "Denver, Colorado, United States"
    },
    "1675 larimer st denver, co 80202, usa": {
      "lat": 39.750115,
      "lng": -104.996651,
      "matchedAddress": "1675 Larimer Street, Denver, Colorado 80202, United States"
    },
    "bierstadt lagerhaus 2875 blake st, denver, co 80205, usa": {
      "lat": 39.762785,
      "lng": -104.984006,
      "matchedAddress": "2875 Blake Street, Denver, Colorado 80205, United States"
    },
    "craftissimo sheung wan shop d, g/f, tai ping building, 22-24a tai ping shan st, sheung wan, hong kong": {
      "lat": 22.28394,
      "lng": 114.1505,
      "matchedAddress": "22-24A Tai Ping Shan St, Sheung Wan, Hong Kong"
    },
    "arcadia restaurant & bar hong kong, causeway bay, tang lung st, 1號, midtown soundwill plaza ii, midtown 30樓": {
      "lat": 22.28024,
      "lng": 114.18371,
      "matchedAddress": "1 Tang Lung St, Causeway Bay, Hong Kong"
    },
    "asap alternate sauna and plunge 2/f, 11 stanley st, central, hong kong": {
      "lat": 22.279356,
      "lng": 114.16255,
      "matchedAddress": "Hong Kong"
    },
    "powerhouse barbell club lg/f, silver fortune plaza, 1 wellington st, central, hong kong": {
      "lat": 22.279356,
      "lng": 114.16255,
      "matchedAddress": "Hong Kong"
    },
    "cyberport 3 core e telegraph bay, hong kong": {
      "lat": 22.2617,
      "lng": 114.1301,
      "matchedAddress": "Cyberport 3, Telegraph Bay, Hong Kong"
    },
    "hopewell hotel 15 kennedy rd, wan chai, hong kong": {
      "lat": 22.27474,
      "lng": 114.16996,
      "matchedAddress": "堅尼地道 Kennedy Road 15, Wanzai Qu, Hong Kong"
    },
    "tower 535 535 jaffe rd, causeway bay, hong kong": {
      "lat": 22.28136,
      "lng": 114.183883,
      "matchedAddress": "謝斐道 Jaffe Road 535, Wanzai Qu, Hong Kong"
    },
    "g/f & 1/f, cai building, 54-58 electric road, tin hau, hong kong": {
      "lat": 22.279356,
      "lng": 114.16255,
      "matchedAddress": "Hong Kong"
    },
    "aws hong kong tower 535, 535 jaffe rd, causeway bay, hong kong": {
      "lat": 22.279356,
      "lng": 114.16255,
      "matchedAddress": "Hong Kong"
    },
    "hong kong university of science and technology (hkust) clear water bay, hong kong": {
      "lat": 22.279356,
      "lng": 114.16255,
      "matchedAddress": "Hong Kong"
    },
    "hong kong zoological and botanical gardens albany rd, hong kong": {
      "lat": 22.277379,
      "lng": 114.154993,
      "matchedAddress": "雅賓利道 Albany Road, Zhongxi Qu, Hong Kong"
    },
    "four seasons hotel hong kong 8 finance st, central, hong kong": {
      "lat": 22.286619,
      "lng": 114.156661,
      "matchedAddress": "金融街 Finance Street 8, Zhongxi Qu, Hong Kong"
    },
    "latham & watkins llp hong kong, central, 交易廣場一期18樓": {
      "lat": 22.374333,
      "lng": 114.114255,
      "matchedAddress": "西樓角路 Sai Lau Kok Road 18, Quanwan Qu, Hong Kong"
    },
    "dram good whisky shop hong kong 15th floor, unit 1506, 18 - 20 lyndhurst terrace, central, hong kong": {
      "lat": 22.279356,
      "lng": 114.16255,
      "matchedAddress": "Hong Kong"
    },
    "the optimist 239號地下至, 2樓, 239 hennessy rd, wan chai, hong kong": {
      "lat": 22.278089,
      "lng": 114.175926,
      "matchedAddress": "軒尼詩道 Hennessy Road 239, Wanzai Qu, Hong Kong"
    },
    "hong kong convention & exhibition centre": {
      "lat": 22.2823,
      "lng": 114.1752,
      "matchedAddress": "Hong Kong Convention & Exhibition Centre, Wan Chai, Hong Kong"
    },
    "hong kong": {
      "lat": 22.279356,
      "lng": 114.16255,
      "matchedAddress": "Hong Kong"
    },
    "central pier no.10 hong kong, central, 中環": {
      "lat": 22.279356,
      "lng": 114.16255,
      "matchedAddress": "Hong Kong"
    },
    "amante house hong kong, central, d'aguilar st, 一號蘭桂坊地下": {
      "lat": 22.279356,
      "lng": 114.16255,
      "matchedAddress": "Hong Kong"
    },
    "cassio social club hong kong, central, wyndham st, 33號, 33 wyndham street (formerly lkf tower), 2/f": {
      "lat": 22.2812,
      "lng": 114.1554,
      "matchedAddress": "33 Wyndham Street, Central, Hong Kong"
    },
    "pier 1929 hong kong, 灣仔灣仔渡輪碼頭2/f": {
      "lat": 22.278115,
      "lng": 114.170389,
      "matchedAddress": "分域街 Fenwick Street 2, Wanzai Qu, Hong Kong"
    },
    "listed company office 26/f, cofco tower, no. 262 gloucester road, causeway bay, hong kong": {
      "lat": 22.2795,
      "lng": 114.1834,
      "matchedAddress": "COFCO Tower, 262 Gloucester Road, Causeway Bay, Hong Kong"
    },
    "boomerang • the illusionist shop 1 &, 2, lg/f, lkf tower, 55 d'aguilar st, central, hong kong": {
      "lat": 22.2812,
      "lng": 114.1554,
      "matchedAddress": "55 D'Aguilar Street, Central, Hong Kong"
    },
    "hong kong observation wheel 33 man kwong st, central, hong kong": {
      "lat": 22.285499,
      "lng": 114.161819,
      "matchedAddress": "民光街 Man Kwong Street 33, Zhongxi Qu, Hong Kong"
    },
    "lung fu shan morning trail 5 hatton rd, lung fu shan, hong kong": {
      "lat": 22.279356,
      "lng": 114.16255,
      "matchedAddress": "Hong Kong"
    },
    "hong kong observation wheel central, hong kong": {
      "lat": 22.279356,
      "lng": 114.16255,
      "matchedAddress": "Hong Kong"
    },
    "hong kong hong kong": {
      "lat": 22.258137,
      "lng": 114.173723,
      "matchedAddress": "港島徑第4段 Hong Kong Trail Section 4, Wanzai Qu, Hong Kong"
    },
    "csu spur hydro building 4777 national western dr, denver, co 80216": {
      "lat": 39.783518,
      "lng": -104.97373,
      "matchedAddress": "4777 North National Western Drive, Denver, Colorado 80216, United States"
    },
    "ethdenver": {
      "lat": 39.741681,
      "lng": -104.986109,
      "matchedAddress": "Denver, Colorado, United States"
    },
    "secret location tba": {
      "lat": 39.741681,
      "lng": -104.986109,
      "matchedAddress": "Denver, Colorado, United States"
    },
    "national western complex 4655 n humboldt st, denver, co 80216, usa": {
      "lat": 39.78111,
      "lng": -104.971375,
      "matchedAddress": "4655 Humboldt Street, Denver, Colorado 80216, United States"
    },
    "call me pearl 1600 20th street, denver, co 80202": {
      "lat": 39.75514,
      "lng": -104.996177,
      "matchedAddress": "1600 20th Street, Denver, Colorado 80202, United States"
    },
    "milk tea people 1641 market st #133, denver, co 80202, usa": {
      "lat": 39.75065,
      "lng": -104.997934,
      "matchedAddress": "1641 Market Street, Denver, Colorado 80202, United States"
    },
    "4850 national western dr, denver, co 80216, usa": {
      "lat": 39.784305,
      "lng": -104.971308,
      "matchedAddress": "4850 North National Western Drive, Denver, Colorado 80216, United States"
    },
    "denver skatepark 2205 19th st, denver, co 80202": {
      "lat": 39.75958,
      "lng": -105.00277,
      "matchedAddress": "2205 19th Street, Denver, Colorado 80202, United States"
    },
    "tacoselhuequito 2111 east 48th avenue, denver, co 80216, usa": {
      "lat": 39.78427,
      "lng": -104.962143,
      "matchedAddress": "2111 East 48th Avenue, Denver, Colorado 80216, United States"
    },
    "4850 national western drive, denver, co 80216": {
      "lat": 39.784305,
      "lng": -104.971308,
      "matchedAddress": "4850 North National Western Drive, Denver, Colorado 80216, United States"
    },
    "reunion bakery / sourdough bread / coffee 3350 brighton blvd #140, denver, co 80216, usa": {
      "lat": 39.76859,
      "lng": -104.979562,
      "matchedAddress": "3350 North Brighton Boulevard, Denver, Colorado 80216, United States"
    },
    "denver art museum 100 w 14th ave pkwy, denver, co 80204": {
      "lat": 39.737518,
      "lng": -104.98949,
      "matchedAddress": "100 West 14th Avenue Parkway, Denver, Colorado 80204, United States"
    },
    "poka lola social club 1850 wazee st, denver, co 80202, usa": {
      "lat": 39.753605,
      "lng": -104.996502,
      "matchedAddress": "1850 Wazee Street, Denver, Colorado 80202, United States"
    },
    "mirus gallery & art bar denver 1144 broadway, denver, co 80203": {
      "lat": 39.734721,
      "lng": -104.987112,
      "matchedAddress": "1144 North Broadway, Denver, Colorado 80203, United States"
    },
    "thompson denver reynard social spaces 1616 market st, denver, co 80202, usa": {
      "lat": 39.749888,
      "lng": -104.997812,
      "matchedAddress": "1616 Market Street, Denver, Colorado 80202, United States"
    },
    "mirus gallery 1144 broadway denver, co 80203": {
      "lat": 39.734721,
      "lng": -104.987112,
      "matchedAddress": "1144 North Broadway, Denver, Colorado 80203, United States"
    },
    "3535 walnut street 3535 walnut st, denver, co 80205, usa": {
      "lat": 39.76822,
      "lng": -104.97485,
      "matchedAddress": "3535 Walnut Street, Denver, Colorado 80205, United States"
    },
    "plant magic cafe 925 e 17th ave, denver, co 80218, usa": {
      "lat": 39.743509,
      "lng": -104.975376,
      "matchedAddress": "925 East 17th Avenue, Denver, Colorado 80218, United States"
    },
    "lvc (livestock center) at the national western center 4850 national western dr, denver, co 80216, usa": {
      "lat": 39.784305,
      "lng": -104.971308,
      "matchedAddress": "4850 North National Western Drive, Denver, Colorado 80216, United States"
    },
    "pigtrain coffee company 1701 wynkoop st, denver, co 80202, usa": {
      "lat": 39.752427,
      "lng": -104.99884,
      "matchedAddress": "1701 Wazee Street, Denver, Colorado 80202, United States"
    },
    "industrious 1801 california st #2400, denver, co 80202, usa": {
      "lat": 39.747628,
      "lng": -104.989799,
      "matchedAddress": "1801 California Street, Denver, Colorado 80202, United States"
    },
    "magna kainan 1350 40th st, denver, co 80205, usa": {
      "lat": 39.771448,
      "lng": -104.969679,
      "matchedAddress": "1350 40th Street, Denver, Colorado 80205, United States"
    },
    "malinche audiobar 1541 platte st, denver, co 80202, usa": {
      "lat": 39.75715,
      "lng": -105.008625,
      "matchedAddress": "1541 Platte Street, Denver, Colorado 80202, United States"
    },
    "call me pearl 1600 20th st, denver, co 80202, usa": {
      "lat": 39.75514,
      "lng": -104.996177,
      "matchedAddress": "1600 20th Street, Denver, Colorado 80202, United States"
    },
    "thrive workplace ball park 1415 park ave w, denver, co 80205, usa": {
      "lat": 39.756813,
      "lng": -104.989969,
      "matchedAddress": "1415 Park Avenue West, Denver, Colorado 80205, United States"
    },
    "3560 brighton blvd, denver, co 80216": {
      "lat": 39.770886,
      "lng": -104.977683,
      "matchedAddress": "3560 North Brighton Boulevard, Denver, Colorado 80216, United States"
    },
    "the 1up arcade bar - lodo 1925 blake st, denver, co 80202, usa": {
      "lat": 39.753983,
      "lng": -104.995264,
      "matchedAddress": "1925 Blake Street, Denver, Colorado 80202, United States"
    },
    "rino beer garden 3800 walnut st, denver, co 80205, usa": {
      "lat": 39.770107,
      "lng": -104.971395,
      "matchedAddress": "3800 Walnut Street, Denver, Colorado 80205, United States"
    },
    "banshee house 2715 larimer st, denver, co 80205": {
      "lat": 39.75986,
      "lng": -104.983962,
      "matchedAddress": "2715 Larimer Street, Denver, Colorado 80205, United States"
    },
    "710 e 26th ave, denver, co 80205, usa": {
      "lat": 39.754485,
      "lng": -104.977894,
      "matchedAddress": "710 East 26th Avenue, Denver, Colorado 80205, United States"
    },
    "get ai traffic today: creativehaus.org/ai-seo": {
      "lat": 39.741681,
      "lng": -104.986109,
      "matchedAddress": "Denver, Colorado, United States"
    },
    "la cabra 284 lafayette st, new york, ny 10012, usa": {
      "lat": 40.724291,
      "lng": -73.996176,
      "matchedAddress": "284 Lafayette Street, New York, New York 10012, United States"
    },
    "141 e houston st new york, ny 10002, usa": {
      "lat": 40.72312,
      "lng": -73.989906,
      "matchedAddress": "141 East Houston Street, New York, New York 10002, United States"
    },
    "nolita, new york, ny, usa": {
      "lat": 40.7223,
      "lng": -73.9952,
      "matchedAddress": "Nolita, New York, New York, United States"
    },
    "149 5th ave #1314 new york, ny 10010, usa": {
      "lat": 40.740299,
      "lng": -73.990148,
      "matchedAddress": "149 5th Avenue, New York, New York 10010, United States"
    },
    "117 leroy st new york, ny 10014, usa": {
      "lat": 40.730467,
      "lng": -74.007731,
      "matchedAddress": "117 Leroy Street, New York, New York 10014, United States"
    },
    "carbone new york 181 thompson st, new york, ny 10012, usa": {
      "lat": 40.712749,
      "lng": -74.005994,
      "matchedAddress": "New York, New York, United States"
    },
    "area 140 first bar 140 1st ave, new york, ny 10009, usa": {
      "lat": 40.727816,
      "lng": -73.984833,
      "matchedAddress": "140 1st Avenue, New York, New York 10009, United States"
    },
    "artech space 445 park ave, new york, ny 10022, usa": {
      "lat": 40.761125,
      "lng": -73.970666,
      "matchedAddress": "445 Park Avenue, New York, New York 10022, United States"
    },
    "jw marriott cannes, boulevard de la croisette, cannes, france": {
      "lat": 43.547724,
      "lng": 7.030543,
      "matchedAddress": "Boulevard De La Croisette, 06400 Cannes, France"
    },
    "tennis park montfleury cannes parc montfleury, 21 av. beauséjour, 06400 cannes, france": {
      "lat": 43.55384,
      "lng": 7.033462,
      "matchedAddress": "21 Avenue Beauséjour, 06400 Cannes, France"
    },
    "indacity rue buttura, 06400 cannes, france": {
      "lat": 43.552628,
      "lng": 7.018062,
      "matchedAddress": "Rue Buttura, 06400 Cannes, France"
    },
    "amamo speciality coffee cannes 74 rue meynadier, 06400 cannes, france": {
      "lat": 43.551696,
      "lng": 7.012224,
      "matchedAddress": "74 Rue Meynadier, 06400 Cannes, France"
    },
    "good mate coffee cannes 28 rue hoche, 06400 cannes, france": {
      "lat": 43.552993,
      "lng": 7.021389,
      "matchedAddress": "28 Rue Hoche, 06400 Cannes, France"
    },
    "hôtel martinez - the unbound collection by hyatt 73 bd de la croisette, 06400 cannes, france": {
      "lat": 43.547774,
      "lng": 7.030593,
      "matchedAddress": "73 Boulevard De La Croisette, 06400 Cannes, France"
    },
    "street workout park cannes 06400 cannes, france": {
      "lat": 43.551609,
      "lng": 7.016611,
      "matchedAddress": "06400, Cannes, Alpes-Maritimes, France"
    },
    "hotel barrière le majestic cannes, 10 bd de la croisette, 06400 cannes, france": {
      "lat": 43.550861,
      "lng": 7.019947,
      "matchedAddress": "10 Boulevard De La Croisette, 06400 Cannes, France"
    },
    "love café 24 rue hoche, 06400 cannes, france": {
      "lat": 43.553,
      "lng": 7.021103,
      "matchedAddress": "24 Rue Hoche, 06400 Cannes, France"
    },
    "casino barriere le croisette 1 espace lucien barrière, 06400 cannes, france": {
      "lat": 43.551609,
      "lng": 7.016611,
      "matchedAddress": "06400, Cannes, Alpes-Maritimes, France"
    },
    "cannes france": {
      "lat": 43.55161,
      "lng": 7.016611,
      "matchedAddress": "Cannes, Alpes-Maritimes, France"
    },
    "rado beach helen bd de la croisette, 06400 cannes, france": {
      "lat": 43.547724,
      "lng": 7.030543,
      "matchedAddress": "Boulevard De La Croisette, 06400 Cannes, France"
    },
    "somewhere in cannes, provence-alpes-côte d'azur. rsvp to see exact location": {
      "lat": 43.296174,
      "lng": 5.369953,
      "matchedAddress": "Provence-Alpes-Côte d'Azur, France"
    },
    "okko hotels cannes center 6bis pl. de la gare, 06400 cannes, france": {
      "lat": 43.553651,
      "lng": 7.018274,
      "matchedAddress": "Place De La Gare, 06400 Cannes, France"
    },
    "chrystie 22 rue macé, 06400 cannes, france": {
      "lat": 43.550997,
      "lng": 7.0218,
      "matchedAddress": "22 Rue Macé, 06400 Cannes, France"
    },
    "fontaine de la place du général de gaulle 6 pl. du général de gaulle, 06400 cannes, france": {
      "lat": 43.552082,
      "lng": 7.016302,
      "matchedAddress": "6 Place Du Général De Gaulle, 06400 Cannes, France"
    },
    "jw marriott cannes 50 bd de la croisette, 06400 cannes, france": {
      "lat": 43.54987,
      "lng": 7.025319,
      "matchedAddress": "50 Boulevard De La Croisette, 06400 Cannes, France"
    },
    "hyde beach cannes 45 bd de la croisette, 06400 cannes, france": {
      "lat": 43.551065,
      "lng": 7.024761,
      "matchedAddress": "45 Boulevard De La Croisette, 06400 Cannes, France"
    },
    "palm beach 06400 cannes, france": {
      "lat": 43.551609,
      "lng": 7.016611,
      "matchedAddress": "06400, Cannes, Alpes-Maritimes, France"
    },
    "le bar du gray 38 rue des serbes, 06400 cannes, france": {
      "lat": 43.55215,
      "lng": 7.020774,
      "matchedAddress": "38 Rue Des Serbes, 06400 Cannes, France"
    },
    "la plage du festival 52 bd de la croisette, 06400 cannes, france": {
      "lat": 43.548964,
      "lng": 7.027079,
      "matchedAddress": "52 Boulevard De La Croisette, 06400 Cannes, France"
    },
    "jw marriott, cannes, france": {
      "lat": 43.55161,
      "lng": 7.016611,
      "matchedAddress": "Cannes, Alpes-Maritimes, France"
    },
    "espace croisette 21 rue du canada, 06400 cannes, france": {
      "lat": 43.549384,
      "lng": 7.027796,
      "matchedAddress": "21 Rue Du Canada, 06400 Cannes, France"
    },
    "o’key beach - restaurant plage, 1 bd jean hibert, 06400 cannes, france": {
      "lat": 43.548408,
      "lng": 7.01204,
      "matchedAddress": "1 Boulevard Jean Hibert, 06400 Cannes, France"
    },
    "five seas hotel cannes 1 rue notre dame, 06400 cannes, france": {
      "lat": 43.5518,
      "lng": 7.019129,
      "matchedAddress": "1 Rue Notre-Dame, 06400 Cannes, France"
    },
    "parc mero square méro, 06400 cannes, france": {
      "lat": 43.551609,
      "lng": 7.016611,
      "matchedAddress": "06400, Cannes, Alpes-Maritimes, France"
    },
    "le studio cannes 5 rue des belges, 06400 cannes, france": {
      "lat": 43.55221,
      "lng": 7.019221,
      "matchedAddress": "5 Rue Des Belges, 06400 Cannes, France"
    },
    "7 rue du pré 06400 cannes, france": {
      "lat": 43.551542,
      "lng": 7.009204,
      "matchedAddress": "7 Rue Du Pré, 06400 Cannes, France"
    },
    "vilebrequin la plage cannes 64 bd de la croisette, 06400 cannes, france": {
      "lat": 43.548499,
      "lng": 7.029699,
      "matchedAddress": "64 Boulevard De La Croisette, 06400 Cannes, France"
    },
    "27 bd général vautrin 06400 cannes, france": {
      "lat": 43.548106,
      "lng": 7.032458,
      "matchedAddress": "27 Boulevard Du Général Vautrin, 06400 Cannes, France"
    },
    "vegaluna bd de la croisette, 06400 cannes, france": {
      "lat": 43.547724,
      "lng": 7.030543,
      "matchedAddress": "Boulevard De La Croisette, 06400 Cannes, France"
    },
    "carlton cannes, a regent hotel 58 bd de la croisette cs 40052, 06400 cannes, france": {
      "lat": 43.549285,
      "lng": 7.027109,
      "matchedAddress": "58 Boulevard De La Croisette, 06400 Cannes, France"
    },
    "rsvp to see exact location": {
      "lat": 43.55161,
      "lng": 7.016611,
      "matchedAddress": "Cannes, Alpes-Maritimes, France"
    },
    "luigi cannes - restaurant - piano bar - club, 24 rue latour-maubourg, 06400 cannes, france": {
      "lat": 43.548194,
      "lng": 7.030256,
      "matchedAddress": "24 Rue Latour-Maubourg, 06400 Cannes, France"
    },
    "le kiosque à musique 06400 cannes, france": {
      "lat": 43.551609,
      "lng": 7.016611,
      "matchedAddress": "06400, Cannes, Alpes-Maritimes, France"
    },
    "5 min walk from the palais des festivals, cannes": {
      "lat": 43.55161,
      "lng": 7.016611,
      "matchedAddress": "Cannes, Alpes-Maritimes, France"
    },
    "mouratoglou hotel & resort 3550 rte des dolines, 06410 biot, france": {
      "lat": 43.621165,
      "lng": 7.058511,
      "matchedAddress": "3550 Route Des Dolines, 06410 Biot, France"
    },
    "palm beach, cannes, france": {
      "lat": 43.55161,
      "lng": 7.016611,
      "matchedAddress": "Cannes, Alpes-Maritimes, France"
    },
    "3 av. de benefiat 06400 cannes, france": {
      "lat": 43.551609,
      "lng": 7.016611,
      "matchedAddress": "06400, Cannes, Alpes-Maritimes, France"
    },
    "3 rue michel-ange 06400 cannes, france": {
      "lat": 43.555335,
      "lng": 7.016324,
      "matchedAddress": "3 Rue Michel-Ange, 06400 Cannes, France"
    },
    "la môme 6 rue florian, 06400 cannes, france": {
      "lat": 43.551886,
      "lng": 7.023475,
      "matchedAddress": "6 Rue Florian, 06400 Cannes, France"
    },
    "le hive bar & restaurant, 1 rue de metz, 06400 cannes, france": {
      "lat": 43.555019,
      "lng": 7.02758,
      "matchedAddress": "1 Rue De Metz, 06400 Cannes, France"
    },
    "canopy by hilton cannes 2 bd jean hibert, 06400 cannes, france": {
      "lat": 43.548512,
      "lng": 7.011768,
      "matchedAddress": "2 Boulevard Jean Hibert, 06400 Cannes, France"
    },
    "promenade de la pantiero prom. de la pantiero, 06400 cannes, france": {
      "lat": 43.551298,
      "lng": 7.014385,
      "matchedAddress": "Promenade De La Pantiero, 06400 Cannes, France"
    },
    "maison charlotte busset, 26 rue hoche, 06400 cannes, france": {
      "lat": 43.552998,
      "lng": 7.021229,
      "matchedAddress": "26 Rue Hoche, 06400 Cannes, France"
    },
    "cannes, france": {
      "lat": 43.55161,
      "lng": 7.016611,
      "matchedAddress": "Cannes, Alpes-Maritimes, France"
    },
    "boulevard de la croisette, bd de la croisette, 06400 cannes, france": {
      "lat": 43.547724,
      "lng": 7.030543,
      "matchedAddress": "Boulevard De La Croisette, 06400 Cannes, France"
    },
    "neptune monaco beach, plage du, 98000 monaco": {
      "lat": 43.55161,
      "lng": 7.016611,
      "matchedAddress": "Cannes, Alpes-Maritimes, France"
    },
    "palace of festivals and congresses of cannes palais des festivals et des congrès de cannes, 1 bd de la croisette, 06400 cannes, france": {
      "lat": 43.5513,
      "lng": 7.0178,
      "matchedAddress": "1 Boulevard de la Croisette, 06400 Cannes, France"
    },
    "all in padel mougins | club de padel by jo-wilfried tsonga & thierry ascione 1028 av. notre dame de vie, 06250 mougins, france": {
      "lat": 43.6065,
      "lng": 6.9939,
      "matchedAddress": "1028 Avenue Notre Dame de Vie, 06250 Mougins, France"
    }
  }
}