{
  "generatedAt": "2026-02-12T05:25:15.988Z",
  "addresses": {
    "header highlight - $500": {
      "lat": 40.084736,
      "lng": -104.81027,
      "matchedAddress": "500 Denver Avenue, Fort Lupton, Colorado 80621, United States"
    },
    "address": {
      "lat": 39.741681,
      "lng": -104.986109,
      "matchedAddress": "Denver, Colorado, United States"
    },
    "edgewater beer garden 2508 gray st · edgewater, co": {
      "lat": 39.753352,
      "lng": -105.061072,
      "matchedAddress": "2508 Gray Street, Edgewater, Colorado 80214, United States"
    },
    "etown hall 1535 spruce st, boulder, co 80302, usa": {
      "lat": 40.020239,
      "lng": -105.275498,
      "matchedAddress": "1535 Spruce Street, Boulder, Colorado 80302, United States"
    },
    "csu spur hydro building": {
      "lat": 39.741681,
      "lng": -104.986109,
      "matchedAddress": "Denver, Colorado, United States"
    },
    "embassy suites by hilton denver downtown convention center 1420 stout st, denver, co 80202, usa": {
      "lat": 39.74409,
      "lng": -104.994852,
      "matchedAddress": "1420 Stout Street, Denver, Colorado 80202, United States"
    },
    "4850 national western dr denver, co 80216, usa": {
      "lat": 39.784305,
      "lng": -104.971308,
      "matchedAddress": "4850 North National Western Drive, Denver, Colorado 80216, United States"
    },
    "the curtis denver - a doubletree by hilton hotel 1405 curtis street, denver, co 80202, usa": {
      "lat": 39.74581,
      "lng": -104.997185,
      "matchedAddress": "1405 Curtis Street, Denver, Colorado 80202, United States"
    },
    "4777 national western dr denver, co 80216, usa": {
      "lat": 39.783518,
      "lng": -104.97373,
      "matchedAddress": "4777 North National Western Drive, Denver, Colorado 80216, United States"
    },
    "3416 e colfax ave, denver, co 80206": {
      "lat": 39.739961,
      "lng": -104.946778,
      "matchedAddress": "3416 East Colfax Avenue, Denver, Colorado 80206, United States"
    },
    "improper city 3201 walnut st #107, denver, co 80205, usa": {
      "lat": 39.765348,
      "lng": -104.978694,
      "matchedAddress": "3201 Walnut Street, Denver, Colorado 80205, United States"
    },
    "1725 e 30th ave denver, co 80205, usa": {
      "lat": 39.75962,
      "lng": -104.96639,
      "matchedAddress": "1725 East 30th Avenue, Denver, Colorado 80205, United States"
    },
    "hello darling (commons park) 1610 little raven st #110, denver, co 80202, usa": {
      "lat": 39.75516,
      "lng": -105.004328,
      "matchedAddress": "1610 Little Raven Street, Denver, Colorado 80202, United States"
    },
    "denver co, usa": {
      "lat": 39.741681,
      "lng": -104.986109,
      "matchedAddress": "Denver, Colorado, United States"
    },
    "denver barbell club 3821 steele st ste 1302, denver, co 80205, usa": {
      "lat": 39.769833,
      "lng": -104.953142,
      "matchedAddress": "3821 North Steele Street, Denver, Colorado 80205, United States"
    },
    "1075 park ave west, denver co 80205": {
      "lat": 39.75445,
      "lng": -104.986863,
      "matchedAddress": "1075 Park Avenue West, Denver, Colorado 80205, United States"
    },
    "asterisk 1075 park ave w, denver, co 80205, usa": {
      "lat": 39.75445,
      "lng": -104.986863,
      "matchedAddress": "1075 Park Avenue West, Denver, Colorado 80205, United States"
    },
    "the wild 1660 wynkoop st suite 100, denver, co 80202, usa": {
      "lat": 39.752166,
      "lng": -105.000145,
      "matchedAddress": "1660 Wynkoop Street, Denver, Colorado 80202, United States"
    },
    "snooze, an a.m. eatery 1701 wynkoop st suite 100, denver, co 80202, usa": {
      "lat": 39.752427,
      "lng": -104.99884,
      "matchedAddress": "1701 Wazee Street, Denver, Colorado 80202, United States"
    },
    "hilton garden inn denver union station 1999 chestnut pl, denver, co 80202, usa": {
      "lat": 39.757637,
      "lng": -104.999297,
      "matchedAddress": "1999 Chestnut Place, Denver, Colorado 80202, United States"
    },
    "1725 e 30th ave, denver, co 80205, usa": {
      "lat": 39.75962,
      "lng": -104.96639,
      "matchedAddress": "1725 East 30th Avenue, Denver, Colorado 80205, United States"
    },
    "the kitchen american bistro 1560 wazee st, denver, co 80202, usa": {
      "lat": 39.750997,
      "lng": -105.000115,
      "matchedAddress": "1560 Wazee Street, Denver, Colorado 80202, United States"
    },
    "catbird hotel 3770 walnut st, denver, co 80205, usa": {
      "lat": 39.76969,
      "lng": -104.972356,
      "matchedAddress": "3770 Walnut Street, Denver, Colorado 80205, United States"
    },
    "stick & feather 3851 steele st unit 1378, denver, co 80205, usa": {
      "lat": 39.769709,
      "lng": -104.957419,
      "matchedAddress": "3851 N Steele St, Denver, Colorado 80205, United States"
    },
    "bartaco 2001 w 32nd ave, denver, co 80211, usa": {
      "lat": 39.76213,
      "lng": -105.01133,
      "matchedAddress": "2001 West 32nd Avenue, Denver, Colorado 80211, United States"
    },
    "coohills 1400 wewatta st, denver, co 80202, usa": {
      "lat": 39.750781,
      "lng": -105.003498,
      "matchedAddress": "1400 Wewatta Street, Denver, Colorado 80202, United States"
    },
    "silicon valley bank one tabor center, 1200 17th st 16th floor, denver, co 80202, usa": {
      "lat": 39.749175,
      "lng": -104.996273,
      "matchedAddress": "1200 17th Street, Denver, Colorado 80202, United States"
    },
    "denver": {
      "lat": 39.741681,
      "lng": -104.986109,
      "matchedAddress": "Denver, Colorado, United States"
    },
    "virtual event: a link to join the geniiverse will be sent upon approval": {
      "lat": 39.741681,
      "lng": -104.986109,
      "matchedAddress": "Denver, Colorado, United States"
    },
    "temple denver 1136 broadway, denver, co 80203.": {
      "lat": 39.73453,
      "lng": -104.987086,
      "matchedAddress": "1136 North Broadway, Denver, Colorado 80203, United States"
    },
    "confluence park 2250 15th st, denver, co 80202, usa": {
      "lat": 39.754909,
      "lng": -105.008055,
      "matchedAddress": "2250 15th Street, Denver, Colorado 80202, United States"
    },
    "procession coffee, 1075 park ave w, denver, co 80205, usa": {
      "lat": 39.75445,
      "lng": -104.986863,
      "matchedAddress": "1075 Park Avenue West, Denver, Colorado 80205, United States"
    },
    "lower south lot 1 red rocks trail, morrison, co 80401, usa": {
      "lat": 39.669634,
      "lng": -105.199842,
      "matchedAddress": "Red Rocks Trail Road, Morrison, Colorado 80465, United States"
    },
    "coffee sarap 3460 larimer st, denver, co 80205, usa": {
      "lat": 39.766507,
      "lng": -104.974858,
      "matchedAddress": "3460 Larimer Street, Denver, Colorado 80205, United States"
    },
    "legacy building (level 3) at the national western center (4800 national western dr, denver, co 80216)": {
      "lat": 39.783503,
      "lng": -104.97267,
      "matchedAddress": "4800 North National Western Drive, Denver, Colorado 80216, United States"
    },
    "green spaces 2590 walnut st, denver, co 80205, usa": {
      "lat": 39.758776,
      "lng": -104.986183,
      "matchedAddress": "2590 Walnut Street, Denver, Colorado 80205, United States"
    },
    "federales tacos & tequila - rino, denver 2901 larimer st, denver, co 80205, usa": {
      "lat": 39.76162,
      "lng": -104.98171,
      "matchedAddress": "2901 Larimer Street, Denver, Colorado 80205, United States"
    },
    "mirus gallery & art bar denver 1144 broadway, denver, co 80203, usa": {
      "lat": 39.734721,
      "lng": -104.987112,
      "matchedAddress": "1144 North Broadway, Denver, Colorado 80203, United States"
    },
    "4800 national western dr denver, co 80216, usa": {
      "lat": 39.783503,
      "lng": -104.97267,
      "matchedAddress": "4800 North National Western Drive, Denver, Colorado 80216, United States"
    },
    "taft stettinius & hollister llp (formerly sherman & howard l.l.c.) 675 15th st suite 2300, denver, co 80202, usa": {
      "lat": 39.744346,
      "lng": -104.992949,
      "matchedAddress": "675 15th Street, Denver, Colorado 80202, United States"
    },
    "the walnut room 3131 walnut st, denver, co 80205, usa": {
      "lat": 39.764583,
      "lng": -104.97929,
      "matchedAddress": "Walnut Street, Denver, Colorado 80205, United States"
    },
    "the peach crease club 4180 wynkoop st, denver, co 80216, usa": {
      "lat": 39.77543,
      "lng": -104.970198,
      "matchedAddress": "4180 Wynkoop Street, Denver, Colorado 80216, United States"
    },
    "one shot back 2134 curtis street ste 101, denver, co 80205, usa": {
      "lat": 39.752135,
      "lng": -104.98802,
      "matchedAddress": "2134 Curtis Street, Denver, Colorado 80205, United States"
    },
    "tamayo 1400 larimer st, denver, co 80202, usa": {
      "lat": 39.747316,
      "lng": -104.999483,
      "matchedAddress": "1400 Larimer Street, Denver, Colorado 80202, United States"
    },
    "tbd": {
      "lat": 39.741681,
      "lng": -104.986109,
      "matchedAddress": "Denver, Colorado, United States"
    },
    "lucky strike denver 500 16th st mall #340, denver, co 80202, usa": {
      "lat": 39.743352,
      "lng": -104.990897,
      "matchedAddress": "500 16th Street, Denver, Colorado 80202, United States"
    },
    "edge restaurant & bar 1111 14th st, denver, co 80202, usa": {
      "lat": 39.746528,
      "lng": -104.99825,
      "matchedAddress": "1111 14th Street, Denver, Colorado 80202, United States"
    },
    "upswell rino station 3636 blake st, denver, co 80205, usa": {
      "lat": 39.76947,
      "lng": -104.974495,
      "matchedAddress": "3636 Blake Street, Denver, Colorado 80205, United States"
    },
    "rise comedy - denver comedy, improv, stand up and sketch - full bar 1260 22nd st, denver, co 80205, usa": {
      "lat": 39.754446,
      "lng": -104.989995,
      "matchedAddress": "1260 West 22nd Street, Denver, Colorado 80205, United States"
    },
    "will be disclosed with approved guests": {
      "lat": 39.741681,
      "lng": -104.986109,
      "matchedAddress": "Denver, Colorado, United States"
    },
    "3851 steele st unit 1378 denver, co 80205, usa": {
      "lat": 39.769709,
      "lng": -104.957419,
      "matchedAddress": "3851 N Steele St, Denver, Colorado 80205, United States"
    },
    "mister oso rino, 3163 larimer st, denver, co 80205, usa": {
      "lat": 39.764235,
      "lng": -104.9785,
      "matchedAddress": "3163 Larimer Street, Denver, Colorado 80205, United States"
    },
    "meow wolf denver's convergence station 1338 1st st, denver, co 80204, usa": {
      "lat": 39.740848,
      "lng": -105.015823,
      "matchedAddress": "1338 1st Street, Denver, Colorado 80204, United States"
    },
    "lakewood co, usa": {
      "lat": 39.708706,
      "lng": -105.086267,
      "matchedAddress": "Lakewood, Colorado, United States"
    },
    "shift workspaces - bannock 1001 bannock st, denver, co 80204, usa": {
      "lat": 39.732232,
      "lng": -104.990586,
      "matchedAddress": "1001 Bannock Street, Denver, Colorado 80218, United States"
    },
    "cimera 3330 brighton blvd #200-2, denver, co 80216, usa": {
      "lat": 39.768677,
      "lng": -104.980445,
      "matchedAddress": "3330 North Brighton Boulevard, Denver, Colorado 80216, United States"
    },
    "wynkoop brewing company, 18th street, denver, co, usa": {
      "lat": 39.75363,
      "lng": -104.998347,
      "matchedAddress": "18th Street, Denver, Colorado 80202, United States"
    },
    "number thirty eight 3560 chestnut pl, denver, co 80216, usa": {
      "lat": 39.77241,
      "lng": -104.97938,
      "matchedAddress": "3560 Chestnut Place, Denver, Colorado 80216, United States"
    },
    "f1 arcade denver 2734 walnut st, denver, co 80205, usa": {
      "lat": 39.760546,
      "lng": -104.984139,
      "matchedAddress": "2734 Walnut Street, Denver, Colorado 80205, United States"
    },
    "the banshee house 2715 larimer st, denver, co 80205, usa": {
      "lat": 39.75986,
      "lng": -104.983962,
      "matchedAddress": "2715 Larimer Street, Denver, Colorado 80205, United States"
    },
    "mockingbird 2737 larimer st, denver, co 80205, usa": {
      "lat": 39.760196,
      "lng": -104.983632,
      "matchedAddress": "2737 Larimer Street, Denver, Colorado 80205, United States"
    },
    "hearth 2500 lawrence st #200, denver, co 80205, usa": {
      "lat": 39.75688,
      "lng": -104.985259,
      "matchedAddress": "2500 Lawrence Street, Denver, Colorado 80205, United States"
    },
    "limelight denver 1600 wewatta st, denver, co 80202, usa": {
      "lat": 39.753217,
      "lng": -105.001942,
      "matchedAddress": "1600 Wewatta Street, Denver, Colorado 80202, United States"
    },
    "4809 race st denver, co 80216, usa": {
      "lat": 39.78402,
      "lng": -104.96377,
      "matchedAddress": "4809 Race Street, Denver, Colorado 80216, United States"
    },
    "stowaway kitchen 2528 walnut st #104, denver, co 80205, usa": {
      "lat": 39.758558,
      "lng": -104.986548,
      "matchedAddress": "2528 Walnut Street, Denver, Colorado 80205, United States"
    },
    "1925 blake st, denver, co 80202, usa": {
      "lat": 39.753983,
      "lng": -104.995264,
      "matchedAddress": "1925 Blake Street, Denver, Colorado 80202, United States"
    },
    "buidlhub judging space": {
      "lat": 39.741681,
      "lng": -104.986109,
      "matchedAddress": "Denver, Colorado, United States"
    },
    "museum of electronic music - denver": {
      "lat": 40.27358,
      "lng": -76.23097,
      "matchedAddress": "Museum Rd, Denver, Pennsylvania 17517, United States"
    },
    "notes": {
      "lat": 39.741681,
      "lng": -104.986109,
      "matchedAddress": "Denver, Colorado, United States"
    },
    "repulse bay beach hong kong": {
      "lat": 39.74168,
      "lng": -104.98611,
      "matchedAddress": "Denver County, Colorado, United States"
    },
    "asap alternate sauna and plunge 2/f, 11 stanley st, central, hong kong": {
      "lat": 39.741681,
      "lng": -104.986109,
      "matchedAddress": "Denver, Colorado, United States"
    },
    "the reunification monument 海濱花園旁, wan chai, hong kong": {
      "lat": 22.27925,
      "lng": 114.17325,
      "matchedAddress": "Wanzai Qu, Hong Kong"
    },
    "powerhouse barbell club lg/f, silver fortune plaza, 1 wellington st, central, hong kong": {
      "lat": 5.322596,
      "lng": -4.374264,
      "matchedAddress": "Lagunes, Côte d'Ivoire"
    },
    "harbour station hung hing rd, causeway bay, hong kong": {
      "lat": 22.279356,
      "lng": 114.16255,
      "matchedAddress": "Hong Kong"
    },
    "hong kong convention and exhibition centre 1號 expo dr, wan chai, hong kong": {
      "lat": 39.74168,
      "lng": -104.98611,
      "matchedAddress": "Denver County, Colorado, United States"
    },
    "fireside 5th floor, h code (the steps, 45 pottinger st, central, hong kong": {
      "lat": 9.148681,
      "lng": -4.610648,
      "matchedAddress": "Kong, Savanes, Côte d'Ivoire"
    },
    "cyberport 3 core f 28 bel-air ave, telegraph bay, hong kong": {
      "lat": 39.741681,
      "lng": -104.986109,
      "matchedAddress": "Denver, Colorado, United States"
    },
    "st. joan of arc secondary school, hong kong 55號 braemar hill rd, hong kong": {
      "lat": 39.741681,
      "lng": -104.986109,
      "matchedAddress": "Denver, Colorado, United States"
    },
    "runnovation - 潤維創坊 causeway centre block b, 28 harbour rd, wan chai, hong kong": {
      "lat": 39.74168,
      "lng": -104.98611,
      "matchedAddress": "Denver County, Colorado, United States"
    },
    "international commerce centre (icc) 1 austin rd w, west kowloon, hong kong": {
      "lat": 39.741681,
      "lng": -104.986109,
      "matchedAddress": "Denver, Colorado, United States"
    },
    "aws hong kong tower 535, 535 jaffe rd, causeway bay, hong kong": {
      "lat": 39.741681,
      "lng": -104.986109,
      "matchedAddress": "Denver, Colorado, United States"
    },
    "soho house hong kong 33 des voeux rd w, sheung wan, hong kong": {
      "lat": 22.287889,
      "lng": 114.146606,
      "matchedAddress": "德輔道西 Des Voeux Road West 33, Zhongxi Qu, Hong Kong"
    },
    "26/f, qre plaza, 202 queen's road east, wan chai, hong kong": {
      "lat": 9.148681,
      "lng": -4.610648,
      "matchedAddress": "Kong, Savanes, Côte d'Ivoire"
    },
    "central hong kong": {
      "lat": 39.741681,
      "lng": -104.986109,
      "matchedAddress": "Denver, Colorado, United States"
    },
    "energy plaza 92 granville rd, tsim sha tsui east, hong kong": {
      "lat": 9.148681,
      "lng": -4.610648,
      "matchedAddress": "Kong, Savanes, Côte d'Ivoire"
    },
    "central pier no.10 central, hong kong": {
      "lat": 22.279356,
      "lng": 114.16255,
      "matchedAddress": "Hong Kong"
    },
    "hong kong hong kong": {
      "lat": 39.741681,
      "lng": -104.986109,
      "matchedAddress": "Denver, Colorado, United States"
    },
    "hong kong convention & exhibition centre": {
      "lat": 39.741681,
      "lng": -104.986109,
      "matchedAddress": "Denver, Colorado, United States"
    },
    "the harbourview 2/f, the harbourview, 4 harbour rd, wan chai, hong kong": {
      "lat": 39.741681,
      "lng": -104.986109,
      "matchedAddress": "Denver, Colorado, United States"
    },
    "swiss cafe 號地下, 12 li yuen st w, central, hong kong": {
      "lat": 22.283009,
      "lng": 114.156046,
      "matchedAddress": "利源西街 Li Yuen Street West 12, Zhongxi Qu, Hong Kong"
    },
    "ping pong 129 129 second street l/g nam cheong house, sai ying pun, hong kong": {
      "lat": 39.74168,
      "lng": -104.98611,
      "matchedAddress": "Denver County, Colorado, United States"
    },
    "four seasons hotel hong kong 8 finance st, central, hong kong": {
      "lat": 9.148681,
      "lng": -4.610648,
      "matchedAddress": "Kong, Savanes, Côte d'Ivoire"
    },
    "the trilogy 26/f, h code, 45 pottinger st, central, hong kong": {
      "lat": 9.148681,
      "lng": -4.610648,
      "matchedAddress": "Kong, Savanes, Côte d'Ivoire"
    },
    "fini's 49 elgin st, central, hong kong": {
      "lat": 37.416684,
      "lng": -113.62449,
      "matchedAddress": "Central, Utah, United States"
    },
    "wan chai hong kong": {
      "lat": 22.27925,
      "lng": 114.17325,
      "matchedAddress": "Wanzai Qu, Hong Kong"
    },
    "wan chai harbourfront promenade expo dr, wan chai, hong kong": {
      "lat": 22.279356,
      "lng": 114.16255,
      "matchedAddress": "Hong Kong"
    },
    "victoria park 1 hing fat st, causeway bay, hong kong": {
      "lat": 22.284019,
      "lng": 114.188827,
      "matchedAddress": "興發街 Hing Fat Street 1, Wanzai Qu, Hong Kong"
    },
    "tower 535 535 jaffe rd, causeway bay, hong kong": {
      "lat": 39.74168,
      "lng": -104.98611,
      "matchedAddress": "Denver County, Colorado, United States"
    },
    "space club hong kong, central, wyndham st, 60號, the centrium, 地下2號舖": {
      "lat": 9.148681,
      "lng": -4.610648,
      "matchedAddress": "Kong, Savanes, Côte d'Ivoire"
    },
    "spaces lee garden 3 1 sunning road 4-6/f, 20, 21/f, causeway bay, hong kong": {
      "lat": 39.741681,
      "lng": -104.986109,
      "matchedAddress": "Denver, Colorado, United States"
    },
    "exhibition centre station harbour rd, wan chai, hong kong": {
      "lat": 22.279356,
      "lng": 114.16255,
      "matchedAddress": "Hong Kong"
    },
    "dragon i ug/f, the centrium, 60 wyndham st, central, hong kong": {
      "lat": 9.148681,
      "lng": -4.610648,
      "matchedAddress": "Kong, Savanes, Côte d'Ivoire"
    },
    "hopewell hotel 15 kennedy rd, wan chai, hong kong": {
      "lat": 39.74168,
      "lng": -104.98611,
      "matchedAddress": "Denver County, Colorado, United States"
    },
    "tsim sha tsui hong kong": {
      "lat": 39.741681,
      "lng": -104.986109,
      "matchedAddress": "Denver, Colorado, United States"
    },
    "cardinal point 43-45/f, forty-five, gloucester tower, landmark, 15 queen's road central, central, hong kong": {
      "lat": 39.74168,
      "lng": -104.98611,
      "matchedAddress": "Denver County, Colorado, United States"
    },
    "v point 18 tang lung st, causeway bay, hong kong": {
      "lat": 22.279109,
      "lng": 114.18164,
      "matchedAddress": "登龍街 Tang Lung Street 18, Wanzai Qu, Hong Kong"
    },
    "happy valley racecourse; wong nai chung road happy valley, hong kong": {
      "lat": 39.74168,
      "lng": -104.98611,
      "matchedAddress": "Denver County, Colorado, United States"
    },
    "cosco tower 183 queen's road central, sheung wan, hong kong": {
      "lat": 22.279356,
      "lng": 114.16255,
      "matchedAddress": "Hong Kong"
    },
    "boomerang • the illusionist shop 1 &, 2, lg/f, lkf tower, 55 d'aguilar st, central, hong kong": {
      "lat": 5.322596,
      "lng": -4.374264,
      "matchedAddress": "Lagunes, Côte d'Ivoire"
    },
    "aoao 14/f, 38-48 queen's road central, central, hong kong": {
      "lat": 22.283285,
      "lng": 114.155323,
      "matchedAddress": "皇后大道中 Queen's Road Central, Zhongxi Qu, Hong Kong"
    },
    "99 queen's road central, central, 48th floor, central tower, hong kong": {
      "lat": 39.741681,
      "lng": -104.986109,
      "matchedAddress": "Denver, Colorado, United States"
    },
    "fayy 25-26/f, california tower, 30-32 d'aguilar st, central, hong kong": {
      "lat": 39.741681,
      "lng": -104.986109,
      "matchedAddress": "Denver, Colorado, United States"
    },
    "vsing central 2/f whole, silver fortune plaza, 1 wellington st, central, hong kong": {
      "lat": 59.712914,
      "lng": 15.139446,
      "matchedAddress": "Storå, Örebro, Sweden"
    },
    "the upper housegreenroom · 49/fpacific place88 queenswayadmiralty, hong kong sar": {
      "lat": 39.741681,
      "lng": -104.986109,
      "matchedAddress": "Denver, Colorado, United States"
    },
    "rayson huang theatre pok fu lam rd, lung fu shan, hong kong": {
      "lat": 22.279356,
      "lng": 114.16255,
      "matchedAddress": "Hong Kong"
    },
    "cyberport 3 core e telegraph bay, hong kong": {
      "lat": 39.74168,
      "lng": -104.98611,
      "matchedAddress": "Denver County, Colorado, United States"
    },
    "g/f & 1/f, cai building, 54-58 electric road, tin hau, hong kong": {
      "lat": 39.741681,
      "lng": -104.986109,
      "matchedAddress": "Denver, Colorado, United States"
    },
    "wlab area a, block a-d, 1/f, 196-198 tsat tsz mui rd, quarry bay, hong kong": {
      "lat": 22.291356,
      "lng": 114.20424,
      "matchedAddress": "七姊妹道 Tsat Tsz Mui Road, Dong Qu, Hong Kong"
    },
    "hong kong university of science and technology (hkust) clear water bay, hong kong": {
      "lat": 26.413329,
      "lng": 62.134002,
      "matchedAddress": "Hong, Sarbaz, Sistan and Baluchestan, Iran"
    },
    "hong kong zoological and botanical gardens albany rd, hong kong": {
      "lat": -26.269378,
      "lng": 28.117706,
      "matchedAddress": "Albany Road, Alberton, Gauteng 1449, South Africa"
    },
    "latham & watkins llp hong kong, central, 交易廣場一期18樓": {
      "lat": 39.741681,
      "lng": -104.986109,
      "matchedAddress": "Denver, Colorado, United States"
    },
    "dram good whisky shop hong kong 15th floor, unit 1506, 18 - 20 lyndhurst terrace, central, hong kong": {
      "lat": 39.74168,
      "lng": -104.98611,
      "matchedAddress": "Denver County, Colorado, United States"
    },
    "the optimist 239號地下至, 2樓, 239 hennessy rd, wan chai, hong kong": {
      "lat": 9.148681,
      "lng": -4.610648,
      "matchedAddress": "Kong, Savanes, Côte d'Ivoire"
    },
    "aia carnival 9 lung wo road, central, hki hong kong": {
      "lat": 22.279356,
      "lng": 114.16255,
      "matchedAddress": "Hong Kong"
    },
    "central pier no.10 hong kong, central, 中環": {
      "lat": 39.741681,
      "lng": -104.986109,
      "matchedAddress": "Denver, Colorado, United States"
    },
    "14th floor, three exchange square, 8 connaught place, central, hong kong": {
      "lat": 22.279356,
      "lng": 114.16255,
      "matchedAddress": "Hong Kong"
    },
    "amante house hong kong, central, d'aguilar st, 一號蘭桂坊地下": {
      "lat": 39.74168,
      "lng": -104.98611,
      "matchedAddress": "Denver County, Colorado, United States"
    },
    "cassio social club hong kong, central, wyndham st, 33號, 33 wyndham street (formerly lkf tower), 2/f": {
      "lat": 39.741681,
      "lng": -104.986109,
      "matchedAddress": "Denver, Colorado, United States"
    },
    "pier 1929 hong kong, 灣仔灣仔渡輪碼頭2/f": {
      "lat": 39.741681,
      "lng": -104.986109,
      "matchedAddress": "Denver, Colorado, United States"
    },
    "listed company office 26/f, cofco tower, no. 262 gloucester road, causeway bay, hong kong": {
      "lat": 59.6696,
      "lng": 9.650892,
      "matchedAddress": "Kongsberg, Buskerud, Norway"
    },
    "bar leone 11-15 bridges st, central, hong kong": {
      "lat": 22.279356,
      "lng": 114.16255,
      "matchedAddress": "Hong Kong"
    },
    "hong kong observation wheel 33 man kwong st, central, hong kong": {
      "lat": 9.148681,
      "lng": -4.610648,
      "matchedAddress": "Kong, Savanes, Côte d'Ivoire"
    },
    "lung fu shan morning trail 5 hatton rd, lung fu shan, hong kong": {
      "lat": 39.741681,
      "lng": -104.986109,
      "matchedAddress": "Denver, Colorado, United States"
    },
    "elephant grounds 8 wing fung st, wan chai, hong kong": {
      "lat": 22.27682,
      "lng": 114.168354,
      "matchedAddress": "永豐街 Wing Fung Street 8, Wanzai Qu, Hong Kong"
    },
    "royal hong kong yacht club (rhkyc) kellett island, causeway bay, hong kong": {
      "lat": 22.279356,
      "lng": 114.16255,
      "matchedAddress": "Hong Kong"
    },
    "esp 1029 santa fe dr, denver, co 80204, usa": {
      "lat": 39.732734,
      "lng": -104.998788,
      "matchedAddress": "1029 North Santa Fe Drive, Denver, Colorado 80204, United States"
    },
    "official side events list": {
      "lat": 39.741681,
      "lng": -104.986109,
      "matchedAddress": "Denver, Colorado, United States"
    },
    "1675 larimer st denver, co 80202, usa": {
      "lat": 39.750115,
      "lng": -104.996651,
      "matchedAddress": "1675 Larimer Street, Denver, Colorado 80202, United States"
    },
    "bierstadt lagerhaus 2875 blake st, denver, co 80205, usa": {
      "lat": 39.762785,
      "lng": -104.984006,
      "matchedAddress": "2875 Blake Street, Denver, Colorado 80205, United States"
    },
    "craftissimo sheung wan shop d, g/f, tai ping building, 22-24a tai ping shan st, sheung wan, hong kong": {
      "lat": 22.28394,
      "lng": 114.15050,
      "matchedAddress": "22-24A Tai Ping Shan St, Sheung Wan, Hong Kong"
    },
    "arcadia restaurant & bar hong kong, causeway bay, tang lung st, 1號, midtown soundwill plaza ii, midtown 30樓": {
      "lat": 22.28024,
      "lng": 114.18371,
      "matchedAddress": "1 Tang Lung St, Causeway Bay, Hong Kong"
    }
  }
}